City_ID,City,Lat,Lng,Max Temp,Humidity,Cloudiness,Wind Speed,Country,Date
0,summerside,46.3959,-63.7876,14.5,77,13,1.54,CA,1692750014
1,kundiawa,-6.0167,144.9667,21.56,75,78,1.73,PG,1692749736
2,al bawiti,28.3492,28.8659,27.18,35,0,2.39,EG,1692750015
3,bikenibeu village,1.3673,173.1241,28.7,73,75,3.34,KI,1692750015
4,blackmans bay,-43.0167,147.3167,13.07,69,62,4.03,AU,1692750015
5,madaoua,14.073,5.96,32.21,44,16,3.33,NE,1692750015
6,sola,-13.8833,167.55,25.39,83,100,10.94,VU,1692749737
7,tsiombe,-25.3,45.4833,20.75,66,0,2.71,MG,1692750015
8,buka,40.8108,69.1986,23.04,31,0,1.04,UZ,1692750016
9,port-aux-francais,-49.35,70.2167,1.4,70,97,6.11,TF,1692750016
10,santa cruz,-17.8,-63.1667,27.7,69,56,7.2,BO,1692750016
11,morden,49.1919,-98.1014,20.24,83,97,2.06,CA,1692749997
12,sur,22.5667,59.5289,29.28,65,67,2.67,OM,1692749738
13,santana do livramento,-30.8908,-55.5328,17.15,94,15,5.2,BR,1692750017
14,edinburgh of the seven seas,-37.0676,-12.3116,13.41,96,100,12.4,SH,1692750017
15,adamstown,-25.066,-130.1015,18.84,67,100,12.24,PN,1692750017
16,yellowknife,62.456,-114.3525,20.29,58,75,4.12,CA,1692749896
17,ma'rib,15.4591,45.3253,28.18,24,74,3.14,YE,1692750017
18,papatowai,-46.5619,169.4708,12.09,69,98,1.4,NZ,1692750017
19,hawaiian paradise park,19.5933,-154.9731,28.35,75,40,4.63,US,1692750018
20,nako,31.8814,78.627,14.19,86,100,1.8,IN,1692750018
21,punta arenas,-53.15,-70.9167,0.62,68,71,6.48,CL,1692749927
22,santa eulalia,-11.85,-76.6833,4.44,70,21,0.47,PE,1692749739
23,northam,51.0333,-4.2167,15.17,96,62,1.72,GB,1692749433
24,hadibu,12.65,54.0333,26.54,81,34,7.11,YE,1692750019
25,puerto natales,-51.7236,-72.4875,0.17,85,87,2.77,CL,1692750019
26,keflavik,64.0049,-22.5624,11.24,87,0,6.17,IS,1692749533
27,moree,-29.4667,149.85,19.4,37,2,4.27,AU,1692750019
28,saint-philippe,-21.3585,55.7679,22.77,85,43,5.94,RE,1692749740
29,invercargill,-46.4,168.35,11.12,80,100,1.34,NZ,1692750019
30,pathein,16.7833,94.7333,24.81,94,100,1.52,MM,1692749740
31,waitangi,-43.9535,-176.5597,11.01,80,79,4.02,NZ,1692750020
32,constantia,44.1833,28.65,25.39,64,0,2.74,RO,1692750020
33,bethel,41.3712,-73.414,22.05,72,20,1.54,US,1692749994
34,mar del plata,-38.0023,-57.5575,11.74,70,0,3.58,AR,1692749923
35,hermanus,-34.4187,19.2345,11.0,72,83,10.19,ZA,1692750020
36,avarua,-21.2078,-159.775,26.03,61,75,4.12,CK,1692749726
37,college,64.8569,-147.8028,16.18,81,100,1.54,US,1692750021
38,sitka,57.0531,-135.33,17.94,68,0,7.2,US,1692750021
39,yokadouma,3.5167,15.05,21.83,97,97,1.1,CM,1692750021
40,page,36.9147,-111.4558,30.88,33,0,5.14,US,1692749742
41,lihue,21.9789,-159.3672,30.77,70,40,7.2,US,1692750021
42,mount pearl,47.5166,-52.7813,16.75,96,75,3.09,CA,1692750022
43,pamiers,43.0833,1.5,23.91,76,99,1.87,FR,1692750022
44,longyearbyen,78.2186,15.6401,4.91,93,75,2.57,SJ,1692750022
45,dashitou,43.3067,128.5114,19.99,94,97,0.92,CN,1692750022
46,bamboo flat,11.7,92.7167,25.05,94,100,2.06,IN,1692750022
47,puerto leguizamo,-0.1934,-74.7819,22.99,97,94,1.42,CO,1692750023
48,ribeira grande,38.5167,-28.7,20.99,78,100,0.89,PT,1692750023
49,port elizabeth,-33.918,25.5701,15.61,88,40,7.72,ZA,1692750023
50,fort bragg,35.139,-79.006,31.06,60,0,1.54,US,1692750023
51,atafu village,-8.5421,-172.5159,28.21,73,17,10.33,TK,1692750024
52,veraval,20.9,70.3667,26.46,85,100,5.75,IN,1692750024
53,thompson,55.7435,-97.8558,23.09,46,75,3.09,CA,1692750024
54,dera bugti,29.0307,69.151,30.06,54,51,1.24,PK,1692750024
55,whitehorse,60.7161,-135.0538,25.57,34,40,1.34,CA,1692749911
56,albany,42.6001,-73.9662,21.23,71,24,0.45,US,1692749981
57,ilulissat,69.2167,-51.1,10.01,62,84,3.09,GL,1692750025
58,minas de marcona,-15.2119,-75.1103,14.15,78,18,4.46,PE,1692750025
59,chibougamau,49.9168,-74.3659,15.79,63,0,3.09,CA,1692749840
60,rifle,39.5347,-107.7831,24.33,53,20,4.63,US,1692750026
61,price,39.5994,-110.8107,23.95,68,75,8.23,US,1692749745
62,crane,31.3974,-102.3501,31.96,33,100,5.25,US,1692749904
63,cabo san lucas,22.8909,-109.9124,31.45,62,20,3.6,MX,1692749934
64,aracati,-4.5617,-37.7697,25.77,72,7,6.63,BR,1692750026
65,hithadhoo,-0.6,73.0833,27.85,75,85,6.34,MV,1692750027
66,iqaluit,63.7506,-68.5145,9.83,76,100,10.28,CA,1692750027
67,puerto baquerizo moreno,-0.9,-89.6,23.96,81,78,7.42,EC,1692750027
68,kingscliff,-28.2667,153.5667,24.95,50,7,6.17,AU,1692750027
69,nouadhibou,20.931,-17.0347,24.99,78,27,7.72,MR,1692750027
70,at taj,24.2049,23.2857,29.15,23,0,4.71,LY,1692750028
71,rosetta,31.4044,30.4164,24.46,79,0,1.37,EG,1692750028
72,takestan,36.0696,49.6959,23.02,59,35,3.02,IR,1692750028
73,west island,-12.1568,96.8225,25.99,78,75,4.63,CC,1692750028
74,timaru,-44.4,171.25,10.6,74,47,1.34,NZ,1692750028
75,usinsk,65.9939,57.5281,6.65,92,62,5.46,RU,1692750029
76,grytviken,-54.2811,-36.5092,-1.39,97,99,5.63,GS,1692750029
77,lebu,-37.6167,-73.65,9.0,81,32,2.55,CL,1692750029
78,taltal,-25.4,-70.4833,17.87,65,17,2.32,CL,1692750029
79,gaspe,48.8334,-64.4819,13.95,66,0,2.57,CA,1692749879
80,mitu,1.1983,-70.1733,24.03,93,99,1.19,CO,1692750029
81,manokwari,-0.8667,134.0833,27.72,73,69,2.71,ID,1692749823
82,bodaybo,57.8506,114.1933,15.42,72,19,0.53,RU,1692750030
83,al ghayzah,16.2079,52.176,26.33,88,75,3.07,YE,1692750030
84,kalmunai,7.4167,81.8167,25.76,87,66,4.69,LK,1692750030
85,ancud,-41.8697,-73.8203,6.48,80,95,5.53,CL,1692749536
86,lucapa,-8.4192,20.7447,23.44,32,16,2.01,AO,1692750030
87,talnakh,69.4865,88.3972,11.23,86,91,2.48,RU,1692750031
88,klyuchi,52.2667,79.1667,17.71,72,29,2.62,RU,1692750031
89,nemuro,43.3236,145.575,20.88,97,99,5.7,JP,1692750031
90,arraial do cabo,-22.9661,-42.0278,19.98,94,0,4.63,BR,1692749919
91,urangan,-25.3,152.9,20.19,69,0,1.36,AU,1692750031
92,tiksi,71.6872,128.8694,4.06,85,100,2.66,RU,1692750032
93,kodiak,57.79,-152.4072,13.73,88,75,3.6,US,1692750032
94,aasiaat,68.7098,-52.8699,5.28,78,60,3.88,GL,1692750032
95,nuku'alofa,-21.1333,-175.2,23.19,60,75,4.12,TO,1692750033
96,dunedin,-45.8742,170.5036,11.56,53,88,1.34,NZ,1692750033
97,suomussalmi,64.8869,28.9078,10.39,81,100,2.12,FI,1692749750
98,mount isa,-20.7333,139.5,24.87,19,0,7.72,AU,1692750033
99,vilyuchinsk,52.9306,158.4028,18.15,82,100,0.99,RU,1692750033
100,california city,35.1258,-117.9859,31.03,25,0,2.24,US,1692749750
101,utrik,11.2278,169.8474,28.63,73,31,6.8,MH,1692750033
102,bereznik,62.8551,42.7072,6.59,88,59,1.85,RU,1692750034
103,isafjordur,66.0755,-23.124,10.02,80,93,1.96,IS,1692750034
104,katsuura,35.1333,140.3,28.26,84,43,5.3,JP,1692750034
105,labrador city,52.9463,-66.9114,8.95,81,100,1.54,CA,1692750034
106,baruun-urt,46.6806,113.2792,12.64,67,12,1.52,MN,1692750035
107,sanandaj,35.3144,46.9923,17.01,39,0,0.0,IR,1692750035
108,ushuaia,-54.8,-68.3,1.81,87,100,9.77,AR,1692749823
109,baissa,7.2333,10.6333,22.95,97,100,1.15,NG,1692750035
110,pangkalanbuun,-2.6833,111.6167,25.76,80,96,1.75,ID,1692750035
111,hotan,37.0997,79.9269,24.24,24,79,1.11,CN,1692750036
112,kill devil hills,36.0307,-75.676,24.99,80,75,6.69,US,1692749752
113,alaghsas,17.0187,8.0168,35.09,21,88,3.71,NE,1692750036
114,vadso,70.0744,29.7487,9.49,87,100,2.57,NO,1692750036
115,sorong,-0.8833,131.25,25.88,86,100,4.58,ID,1692750036
116,pisco,-13.7,-76.2167,19.03,77,100,6.69,PE,1692750036
117,san antonio de pale,-1.4014,5.6325,23.44,90,66,6.41,GQ,1692750036
118,tindouf,27.6711,-8.1474,35.25,17,92,3.09,DZ,1692750037
119,burang,30.25,81.1667,12.06,88,100,2.34,CN,1692750037
120,nishinoomote,30.7333,131.0,28.31,100,75,2.06,JP,1692750037
121,hong kong,22.2855,114.1577,31.09,86,97,1.34,HK,1692750037
122,nong khae,14.3406,100.8673,27.93,92,98,2.35,TH,1692750037
123,lewistown,40.5992,-77.5714,21.45,81,0,0.0,US,1692750038
124,aykhal,66.0,111.5,6.42,69,2,1.65,RU,1692749754
125,sandersville,32.9815,-82.8101,31.82,47,97,1.85,US,1692750038
126,mount gambier,-37.8333,140.7667,11.69,87,94,3.42,AU,1692750038
127,sidney,-33.8679,151.2073,17.41,56,1,0.89,AU,1692749762
128,turaif,31.6725,38.6637,30.14,12,0,6.17,SA,1692750039
129,cockburn town,21.4612,-71.1419,28.6,74,17,8.92,TC,1692750039
130,codrington,-38.2667,141.9667,12.74,77,90,5.69,AU,1692750039
131,tura,25.5198,90.2201,22.48,98,100,2.96,IN,1692750039
132,carutapera,-1.195,-46.02,24.92,79,22,3.91,BR,1692750040
133,puerto ayora,-0.7393,-90.3518,24.19,89,82,2.68,EC,1692750040
134,shalqar,47.8333,59.6,25.4,35,48,3.48,KZ,1692750040
135,port mathurin,-19.6833,63.4167,23.07,76,3,9.85,MU,1692750040
136,east london,-33.0153,27.9116,18.94,36,25,4.31,ZA,1692749986
137,xiaoweizhai,26.1903,107.5125,22.6,94,83,0.58,CN,1692750040
138,new norfolk,-42.7826,147.0587,13.72,72,61,3.52,AU,1692750041
139,lae,-6.7221,146.9847,26.37,65,73,0.17,PG,1692750041
140,bilibino,68.0546,166.4372,6.92,58,96,1.08,RU,1692750041
141,cimitarra,6.3142,-73.9497,25.3,88,83,1.22,CO,1692750041
142,itapaci,-14.9508,-49.5494,27.47,29,38,0.53,BR,1692750041
143,arak,34.0917,49.6892,23.91,17,20,2.63,IR,1692750041
144,alice springs,-23.7,133.8833,17.75,34,0,6.17,AU,1692750042
145,freetown,8.484,-13.2299,25.47,87,100,2.6,SL,1692750042
146,bakanas,44.8081,76.2772,23.66,26,46,2.72,KZ,1692749757
147,sepolno krajenskie,53.452,17.5317,9.71,64,3,1.65,PL,1692750042
148,egilsstadir,65.2653,-14.3948,9.12,98,100,2.35,IS,1692750042
149,klaksvik,62.2266,-6.589,12.51,99,100,1.59,FO,1692750042
150,ponta delgada,37.7333,-25.6667,20.4,77,20,2.57,PT,1692750043
151,chengde,40.9725,117.9361,20.17,62,2,1.28,CN,1692750043
152,vung tau,10.346,107.0843,26.79,85,99,4.32,VN,1692750043
153,mount pleasant,32.7941,-79.8626,31.08,81,0,0.89,US,1692749866
154,pundong,-7.9522,110.3486,23.72,77,13,4.62,ID,1692750044
155,pacific grove,36.6177,-121.9166,26.61,79,0,5.14,US,1692750044
156,port alfred,-33.5906,26.891,16.6,49,33,5.67,ZA,1692750044
157,fraserburgh,57.6874,-2.0184,13.57,82,88,5.73,GB,1692750044
158,prince rupert,54.3161,-130.3201,14.83,86,100,3.09,CA,1692749759
159,wailua homesteads,22.0669,-159.378,30.44,77,40,7.2,US,1692750044
160,fort mcmurray,56.7268,-111.381,23.77,53,40,1.54,CA,1692750004
161,bairnsdale,-37.8333,147.6167,11.32,75,68,2.32,AU,1692750045
162,iwanai,42.9744,140.5089,31.12,67,14,0.77,JP,1692750045
163,bredasdorp,-34.5322,20.0403,11.01,74,95,9.26,ZA,1692750045
164,olonkinbyen,70.9221,-8.7187,5.65,94,94,1.08,SJ,1692750045
165,qaqortoq,60.7167,-46.0333,7.71,84,100,4.03,GL,1692750045
166,valday,57.9747,33.2525,12.45,96,90,1.79,RU,1692750045
167,shchyolkino,45.4291,35.8223,25.83,56,10,6.78,UA,1692750046
168,stanley,54.868,-1.6985,14.18,91,0,2.57,GB,1692750046
169,camayenne,9.535,-13.6878,25.45,87,100,0.28,GN,1692749853
170,santa maria,-29.6842,-53.8069,23.19,73,0,2.06,BR,1692749823
171,carnarvon,-24.8667,113.6333,17.14,68,0,7.95,AU,1692750046
172,chaadayevka,53.1427,45.9122,9.75,66,16,1.26,RU,1692750046
173,khandyga,62.6667,135.6,13.43,85,100,2.29,RU,1692750047
174,panj,37.2363,69.0991,25.06,31,0,1.73,TJ,1692750047
175,chongwe,-15.3292,28.682,17.69,29,0,1.28,ZM,1692749761
176,axim,4.8699,-2.2405,24.29,92,69,3.52,GH,1692749762
177,horodyshche,49.2849,31.4451,16.42,57,3,1.8,UA,1692750047
178,samarinda,-0.5,117.15,24.67,93,69,1.43,ID,1692750047
179,howrah,22.5892,88.3103,29.0,94,75,2.06,IN,1692750048
180,jamestown,42.097,-79.2353,20.77,68,0,3.09,US,1692749880
181,fyodorovka,53.6314,62.7078,16.22,95,96,3.8,KZ,1692749763
182,bandarbeyla,9.4942,50.8122,25.41,82,30,10.85,SO,1692750048
183,tucurui,-3.7661,-49.6725,27.12,62,37,0.59,BR,1692749763
184,st. john's,47.5649,-52.7093,17.21,96,75,3.09,CA,1692750033
185,sabang,5.8933,95.3214,27.78,77,100,5.19,ID,1692749764
186,port saint john's,-31.6229,29.5448,19.41,41,1,2.15,ZA,1692750049
187,enewetak,11.3474,162.3373,28.95,77,80,6.34,MH,1692750049
188,myitkyina,25.3833,97.4,23.38,100,100,0.28,MM,1692749764
189,qaisumah,28.3112,46.1273,33.98,40,0,2.06,SA,1692750049
190,grootfontein,-19.5667,18.1167,18.32,10,7,6.34,NA,1692750049
191,dudinka,69.4058,86.1778,11.46,88,100,3.44,RU,1692750049
192,tazovsky,67.4667,78.7,8.5,96,100,2.61,RU,1692750050
193,ola,59.5833,151.2833,16.75,61,40,2.22,RU,1692750050
194,cidade velha,14.9167,-23.6167,27.26,83,75,2.57,CV,1692749765
195,bridgewater,44.3835,-64.5155,18.82,71,33,5.14,CA,1692749896
196,strezhevoy,60.7333,77.5889,9.09,98,70,3.8,RU,1692749765
197,clorinda,-25.2848,-57.7185,26.09,36,0,3.53,AR,1692750050
198,urumqi,43.801,87.6005,23.53,31,0,2.0,CN,1692750050
199,vila franca do campo,37.7167,-25.4333,20.23,73,78,2.52,PT,1692750051
200,olyokminsk,60.3736,120.4264,11.93,53,0,1.67,RU,1692750051
201,antsiranana,-12.2787,49.2917,21.96,77,4,7.93,MG,1692750051
202,yartsevo,55.0667,32.6964,12.01,95,84,2.37,RU,1692750051
203,al jawf,29.5,38.75,32.69,17,4,2.05,SA,1692749766
204,i-n-salah,27.1935,2.4607,32.63,25,27,3.52,DZ,1692749766
205,callao,-12.0667,-77.15,20.95,77,100,4.63,PE,1692750052
206,gebeit,21.0667,36.3167,29.5,39,56,2.45,SD,1692749767
207,gudari,19.35,83.7833,26.02,93,100,0.38,IN,1692750052
208,selfoss,63.9331,-20.9971,9.47,77,58,2.81,IS,1692750052
209,namsos,64.4662,11.4957,13.03,93,40,0.0,NO,1692750052
210,'ain deheb,34.8422,1.547,24.8,29,0,3.8,DZ,1692750052
211,dolinsk,47.35,142.8,24.58,87,90,5.01,RU,1692750052
212,margaret river,-33.95,115.0667,13.65,71,88,3.84,AU,1692749817
213,vorgashor,67.5833,63.95,6.81,90,97,2.34,RU,1692750053
214,piracanjuba,-17.3028,-49.0167,24.55,34,20,2.0,BR,1692750053
215,hinton,53.4001,-117.5857,16.12,88,100,1.77,CA,1692750053
216,namibe,-15.1961,12.1522,17.2,91,73,3.83,AO,1692750053
217,san antonio,29.4241,-98.4936,26.06,91,75,4.63,US,1692749562
218,bathsheba,13.2167,-59.5167,28.34,89,20,3.09,BB,1692750054
219,petropavlovsk-kamchatsky,53.0452,158.6483,17.33,94,75,3.0,RU,1692750054
220,lauro de freitas,-12.8944,-38.3272,26.01,89,20,4.63,BR,1692750027
221,polyarnyy,69.1989,33.4478,8.45,87,100,0.69,RU,1692750055
222,palu,-0.8917,119.8707,26.89,83,87,0.97,ID,1692750055
223,homer,59.6425,-151.5483,19.32,77,75,3.6,US,1692750056
224,port douglas,-16.4833,145.4667,23.17,68,62,4.79,AU,1692750056
225,dawesville,30.9224,-84.0091,33.53,57,0,1.54,US,1692750056
226,malango,-2.9627,119.9001,21.55,88,93,0.74,ID,1692750057
227,cody,44.5263,-109.0565,27.57,46,0,2.06,US,1692749770
228,tamanrasset,22.785,5.5228,27.95,28,40,4.12,DZ,1692750057
229,ujae,8.9322,165.7642,28.91,73,95,6.12,MH,1692750057
230,khorixas,-20.3667,14.9667,13.95,40,15,1.15,NA,1692749770
231,prado,-17.3411,-39.2208,23.9,89,9,5.25,BR,1692749770
232,la passe,45.5549,-0.8967,27.13,61,13,2.98,FR,1692750057
233,lagos,6.5833,3.75,26.18,94,88,2.45,NG,1692749532
234,georgetown,5.4112,100.3354,27.75,91,20,1.03,MY,1692749867
235,jieshi,22.8134,115.8257,28.55,80,63,1.51,CN,1692749771
236,gamba,-2.65,10.0,22.81,88,85,3.27,GA,1692750058
237,sinabang,2.4803,96.3801,26.38,81,55,2.11,ID,1692750058
238,puerto deseado,-47.7503,-65.8938,4.26,83,52,3.88,AR,1692750058
239,nizhniy kuranakh,58.8353,125.4869,13.56,67,62,1.75,RU,1692750059
240,shimokizukuri,40.8061,140.3861,34.18,64,3,0.84,JP,1692750059
241,badger,64.8,-147.5333,16.14,78,100,1.54,US,1692750059
242,coahuayana de hidalgo,18.7,-103.6583,29.91,73,32,2.05,MX,1692750059
243,ebon,4.582,168.6964,28.86,70,82,4.57,MH,1692750060
244,daytona beach,29.2108,-81.0228,29.05,79,20,2.68,US,1692749773
245,santa isabel,-23.3156,-46.2214,24.42,39,0,1.7,BR,1692750060
246,ponta pora,-22.5361,-55.7256,24.05,48,5,3.78,BR,1692750060
247,hamilton,39.1834,-84.5333,29.32,60,0,4.12,US,1692749650
248,laojunmiao,39.8333,97.7333,17.35,31,25,1.68,CN,1692750060
249,wanning,18.8003,110.3967,27.74,82,100,2.45,CN,1692749774
250,shingu,33.7333,135.9833,27.18,91,53,3.25,JP,1692750061
251,vernon,50.2581,-119.2691,24.96,58,97,6.17,CA,1692749829
252,skagen,57.7209,10.5839,16.01,92,45,6.18,DK,1692750061
253,askiz,53.1319,90.5264,15.93,80,79,2.04,RU,1692750061
254,twon-brass,4.3151,6.2418,25.52,88,97,4.67,NG,1692750061
255,sawakin,19.1059,37.3321,35.05,46,64,2.68,SD,1692750062
256,nar'yan-mar,67.6713,53.087,6.94,95,86,4.71,RU,1692750062
257,westport,41.1415,-73.3579,23.21,68,37,0.45,US,1692750062
258,kayyerkan,69.3786,87.7439,11.28,100,93,3.08,RU,1692750062
259,sandnessjoen,66.0217,12.6316,11.29,95,79,2.15,NO,1692750063
260,mwene-ditu,-7.0,23.45,27.37,24,85,1.44,CD,1692750063
261,alcantara,-2.4089,-44.4147,27.11,82,47,5.06,BR,1692749826
262,russellville,35.2784,-93.1338,36.7,50,0,2.24,US,1692750063
263,castillos,-34.1667,-53.8333,9.87,91,98,4.24,UY,1692750063
264,piti village,13.4626,144.6933,31.49,81,40,4.12,GU,1692750063
265,abepura,-2.6333,140.5833,29.45,62,20,5.14,ID,1692749777
266,port lincoln,-34.7333,135.8667,13.42,65,100,4.49,AU,1692750064
267,uturoa,-16.7333,-151.4333,24.64,61,2,3.88,PF,1692750064
268,noumea,-22.2763,166.4572,23.99,99,31,4.76,NC,1692750064
269,shiogama,38.3167,141.0333,29.99,74,1,4.78,JP,1692750064
270,tazacorte,28.629,-17.9293,27.86,71,0,4.63,ES,1692750064
271,ampanihy,-24.7,44.75,18.72,65,0,2.88,MG,1692749778
272,colonia,50.9333,6.95,18.87,83,0,1.03,DE,1692750065
273,san patricio,28.017,-97.5169,29.36,82,100,9.35,US,1692750065
274,zouerate,22.7187,-12.4521,35.4,20,83,3.56,MR,1692750065
275,honnali,14.25,75.6667,20.38,97,73,1.63,IN,1692750065
276,carbonear,47.7332,-53.2148,17.46,98,100,1.17,CA,1692750065
277,sisimiut,66.9395,-53.6735,10.33,84,96,2.39,GL,1692750065
278,luganville,-15.5333,167.1667,25.3,80,95,6.53,VU,1692749779
279,horodenka,48.6727,25.5016,18.23,69,0,1.33,UA,1692750066
280,tolanaro,-25.0319,46.9987,21.04,88,20,10.8,MG,1692750066
281,puerto santa,-8.9906,-78.6456,20.24,86,72,4.36,PE,1692750066
282,patos de minas,-18.5789,-46.5181,20.74,22,20,1.74,BR,1692750066
283,hirara,24.8,125.2833,30.15,79,20,4.63,JP,1692750067
284,vila velha,-20.3297,-40.2925,23.97,88,40,2.57,BR,1692750067
285,dehdasht,30.7949,50.5646,30.09,28,16,1.6,IR,1692750067
286,beira,-19.8436,34.8389,19.81,85,0,3.46,MZ,1692750067
287,ulladulla,-35.35,150.4667,14.68,73,61,4.81,AU,1692750067
288,kasane,-17.8167,25.15,19.38,31,58,2.3,BW,1692750068
289,bhamo,24.2667,97.2333,23.53,99,100,0.21,MM,1692749781
290,portage la prairie,49.9728,-98.2926,21.05,78,100,3.09,CA,1692750068
291,kingston,17.997,-76.7936,27.91,82,18,0.45,JM,1692749848
292,ciudad lazaro cardenas,17.9583,-102.2,29.27,76,10,3.38,MX,1692750068
293,guercif,34.2257,-3.3536,26.78,57,0,2.39,MA,1692749781
294,nova sintra,14.8667,-24.7167,24.73,78,92,1.87,CV,1692750068
295,camana,-16.6228,-72.7111,17.97,79,59,2.63,PE,1692750069
296,illizi,26.4833,8.4667,29.89,26,66,3.68,DZ,1692750069
297,porto murtinho,-21.6989,-57.8825,30.43,31,2,3.69,BR,1692750069
298,saipan,15.1355,145.701,31.39,100,40,5.14,MP,1692750069
299,novyy urgal,51.0736,132.5642,19.32,86,93,0.63,RU,1692750069
300,hammerfest,70.6634,23.6821,9.25,93,100,0.0,NO,1692750069
301,mossel bay,-34.1831,22.146,10.96,87,78,8.89,ZA,1692750070
302,tangalle,6.024,80.7911,24.83,91,99,3.89,LK,1692750070
303,joao pinheiro,-17.7425,-46.1725,22.39,23,37,2.16,BR,1692749895
304,noosa heads,-26.3833,153.15,24.08,59,1,1.99,AU,1692749797
305,oakdale,44.963,-92.9649,35.68,58,0,4.63,US,1692750044
306,bom jesus,-9.0744,-44.3586,29.29,34,65,1.92,BR,1692750070
307,uige,-7.6087,15.0613,19.03,87,13,0.67,AO,1692749784
308,coquimbo,-29.9533,-71.3436,15.85,72,0,2.06,CL,1692750068
309,el granada,37.5027,-122.4694,29.4,70,0,9.26,US,1692750071
310,saudarkrokur,65.7461,-19.6394,7.5,93,91,1.18,IS,1692750071
311,kendari,-3.945,122.4989,26.22,74,99,1.32,ID,1692750071
312,olovyannaya,50.95,115.5667,15.48,72,100,4.0,RU,1692750071
313,ust-nera,64.5667,143.2,6.26,98,100,2.28,RU,1692750071
314,chonchi,-42.6128,-73.8092,3.95,95,96,1.61,CL,1692750072
315,oxapampa,-10.5775,-75.4017,17.29,81,59,1.21,PE,1692750072
316,belen,36.4891,36.2233,23.08,83,0,5.66,TR,1692750072
317,acarau,-2.8856,-40.12,25.57,76,50,7.66,BR,1692749889
318,papao,-17.75,-149.55,26.82,64,0,3.73,PF,1692750072
319,nyurba,63.2842,118.3319,10.45,58,7,2.17,RU,1692750072
320,broken hill,-31.95,141.4333,11.01,53,0,3.5,AU,1692750072
321,bukama,-9.2,25.85,24.95,26,2,1.33,CD,1692750073
322,ormara,25.2088,64.6357,26.56,85,97,7.27,PK,1692749786
323,rio grande,-32.035,-52.0986,19.06,94,46,8.51,BR,1692750074
324,sao felix do xingu,-6.6447,-51.995,26.91,60,58,1.22,BR,1692750074
325,marka,1.7159,44.7717,24.68,82,72,5.56,SO,1692750074
326,palikir - national government center,6.9248,158.1611,25.47,94,100,2.06,FM,1692749787
327,forster,-32.1667,152.5167,21.27,50,12,5.65,AU,1692750075
328,berdigestyakh,62.0989,126.6992,7.23,71,51,2.72,RU,1692750075
329,arumbavur,11.3833,78.7333,26.99,75,83,2.06,IN,1692750075
330,newman,37.3138,-121.0208,33.34,30,5,1.34,US,1692750075
331,keene,42.9337,-72.2781,20.39,71,0,0.45,US,1692750075
332,tralee,52.2704,-9.7026,12.47,93,88,1.45,IE,1692750075
333,upper grand lagoon,30.1633,-85.7408,33.08,70,40,3.6,US,1692749788
334,igarka,67.4667,86.5833,10.73,93,99,3.22,RU,1692750076
335,kavaratti,10.5669,72.642,27.57,76,54,4.76,IN,1692750076
336,nema,57.5067,50.5011,5.42,91,62,2.83,RU,1692750076
337,villarrobledo,39.2699,-2.6012,24.88,48,9,4.12,ES,1692749788
338,rahimah,26.7079,50.0619,30.12,54,1,4.02,SA,1692750076
339,kantang,7.4054,99.5156,25.05,100,20,0.0,TH,1692750076
340,greymouth,-42.4667,171.2,9.52,77,96,0.36,NZ,1692750076
341,iskateley,67.6803,53.1512,6.9,95,86,4.73,RU,1692750077
342,afaahiti,-17.75,-149.2833,25.93,63,27,3.22,PF,1692750077
343,senanga,-16.1167,23.2667,18.54,18,3,2.34,ZM,1692749789
344,gospic,44.5461,15.3747,19.83,77,0,2.11,HR,1692750077
345,kruisfontein,-34.0033,24.7314,14.38,87,10,8.83,ZA,1692750077
346,opuwo,-18.0607,13.84,17.68,24,33,1.6,NA,1692750077
347,andovoranto,-18.95,49.1,20.61,83,30,1.0,MG,1692749790
348,happy valley-goose bay,53.3168,-60.3315,13.17,67,20,1.03,CA,1692750078
349,preobrazheniye,42.9019,133.9064,24.22,88,100,1.1,RU,1692750078
350,alofi,-19.0595,-169.9187,22.94,83,75,7.2,NU,1692750078
351,mukalla,14.5425,49.1242,29.35,75,8,1.39,YE,1692750078
352,brigantine,39.4101,-74.3646,22.79,69,0,2.06,US,1692750079
353,peace river,56.2501,-117.286,22.17,64,40,2.57,CA,1692750080
354,puerto armuelles,8.2833,-82.8667,25.05,87,100,1.79,PA,1692750080
355,eno,62.8051,30.1542,11.73,76,100,1.48,FI,1692750080
356,lompoc,34.6391,-120.4579,30.01,73,20,6.26,US,1692750080
357,jeremoabo,-10.075,-38.4808,21.24,91,19,3.2,BR,1692750080
358,geraldton,-28.7667,114.6,7.23,93,0,1.54,AU,1692750081
359,daru,-9.0763,143.2092,25.99,79,69,6.77,PG,1692750081
360,thakhek,17.4103,104.8307,26.06,95,97,1.57,LA,1692749792
361,tosontsengel,48.7567,98.2839,8.11,83,12,0.39,MN,1692750081
362,masaya sur,16.497,121.7456,26.91,81,59,0.54,PH,1692749792
363,draganesti-olt,44.1667,24.5333,25.56,41,0,2.18,RO,1692749792
364,mannargudi,10.6667,79.4333,26.91,83,71,2.76,IN,1692750081
365,anadyr,64.75,177.4833,10.28,87,100,7.0,RU,1692750082
366,benguela,-12.5763,13.4055,20.22,92,44,1.18,AO,1692750082
367,weno,7.4515,151.8468,25.97,94,100,4.12,FM,1692750082
368,remire-montjoly,4.9167,-52.2667,27.02,83,0,1.54,GF,1692750082
369,necochea,-38.5473,-58.7368,8.88,72,80,4.45,AR,1692749838
370,toliara,-23.35,43.6667,19.71,68,0,2.21,MG,1692750082
371,dryden,49.7833,-92.7503,18.16,77,100,4.12,CA,1692750082
372,kuraymah,18.55,31.85,35.05,32,70,2.69,SD,1692750083
373,lundazi,-12.2929,33.1782,17.54,58,0,2.92,ZM,1692749794
374,poronaysk,49.2167,143.1167,21.81,92,99,1.9,RU,1692749794
375,haiku-pauwela,20.9219,-156.3051,31.01,45,40,10.29,US,1692750083
376,rakops,-21.0167,24.3333,20.7,23,0,0.91,BW,1692750083
377,xianning,29.8833,114.2167,26.5,84,0,1.39,CN,1692750083
378,kzyltu,53.6364,72.3414,17.51,59,24,3.92,KZ,1692749794
379,pana,39.3889,-89.0801,32.21,72,20,0.45,US,1692750084
380,mambolo,8.9231,-13.0444,26.16,93,100,1.04,SL,1692750084
381,salem,11.65,78.1667,24.43,89,84,1.33,IN,1692749795
382,isangel,-19.55,169.2667,22.74,63,32,5.56,VU,1692750084
383,cobija,-11.0267,-68.7692,31.33,37,92,0.95,BO,1692750084
384,camacupa,-12.0167,17.4833,18.6,23,1,1.47,AO,1692750084
385,pacocha,-17.5833,-71.3333,17.0,84,28,1.27,PE,1692750084
386,nyaunglebin,17.95,96.7333,24.09,95,100,1.98,MM,1692750085
387,al kharijah,25.4514,30.5464,29.61,23,0,4.31,EG,1692750085
388,manuguru,17.981,80.7547,24.56,92,100,0.55,IN,1692750085
389,smithers,54.7804,-127.1743,26.18,22,0,3.09,CA,1692750085
390,maintirano,-18.0667,44.0167,22.36,75,6,2.72,MG,1692750085
391,fale old settlement,-9.3852,-171.2468,28.12,72,29,9.69,TK,1692750085
392,holdrege,40.4403,-99.3698,34.6,40,0,3.09,US,1692750086
393,portland,45.5234,-122.6762,25.71,43,75,2.24,US,1692749828
394,pierre,44.3683,-100.351,32.51,58,0,5.14,US,1692749797
395,kirkwall,58.9848,-2.9587,12.76,82,40,6.17,GB,1692750086
396,lengshuitan,26.4111,111.5956,26.89,81,44,0.19,CN,1692750086
397,dong ha,16.8163,107.1003,28.03,68,100,3.78,VN,1692750086
398,kourou,5.1552,-52.6478,27.03,85,41,5.07,GF,1692749798
399,chinde,26.8418,88.0763,19.17,96,100,0.6,NP,1692750087
400,xingcheng,40.6167,120.7167,23.87,58,57,1.12,CN,1692749798
401,wagga wagga,-35.1167,147.3667,9.91,94,82,1.06,AU,1692750087
402,fort st. john,56.2499,-120.8529,20.94,56,40,2.06,CA,1692750038
403,guaruja,-23.9931,-46.2564,25.5,26,0,0.89,BR,1692749798
404,suva,-18.1416,178.4415,24.71,65,75,4.12,FJ,1692750087
405,peterhead,57.5058,-1.7981,14.22,83,100,4.81,GB,1692750088
406,tuensang,26.2833,94.8333,20.9,100,100,0.26,IN,1692750088
407,park city,42.3484,-87.8842,30.92,85,0,3.09,US,1692749922
408,yantzaza,-3.8278,-78.7594,21.45,97,100,0.96,EC,1692750088
409,ust'-ordynskiy,52.805,104.7508,13.92,77,97,1.05,RU,1692750088
410,mili,6.0815,171.735,28.79,71,91,2.88,MH,1692750088
411,soteapan,18.2333,-94.8667,25.24,84,64,2.04,MX,1692750089
412,imbituba,-28.24,-48.6703,23.81,78,6,4.54,BR,1692749993
413,richards bay,-28.783,32.0377,17.06,95,2,2.2,ZA,1692749559
414,borba,-4.3878,-59.5939,29.71,38,71,1.11,BR,1692749800
415,xai-xai,-25.0519,33.6442,21.98,65,0,3.37,MZ,1692749800
416,okhotsk,59.3833,143.3,15.3,79,88,5.81,RU,1692750089
417,cinnaminson,39.9968,-74.9927,24.37,54,0,2.06,US,1692749820
418,porto novo,6.4965,2.6036,25.9,93,94,2.98,BJ,1692750089
419,maluso,6.543,121.8753,30.05,78,72,1.15,PH,1692750090
420,mil'kovo,55.6078,37.7956,14.08,82,73,2.33,RU,1692750090
421,tual,-5.6667,132.75,25.29,86,92,9.51,ID,1692750090
422,ponto novo,-10.8628,-40.1336,25.31,62,56,4.54,BR,1692750090
423,kapuskasing,49.4169,-82.4331,20.05,72,100,2.06,CA,1692750090
424,trairi,-3.2778,-39.2689,25.39,79,22,5.09,BR,1692750090
425,santana,-0.0583,-51.1817,28.1,74,20,3.6,BR,1692750091
426,shirochanka,46.6497,38.3978,24.13,50,39,3.85,RU,1692749802
427,karratha,-20.7377,116.8463,22.17,56,0,2.8,AU,1692750091
428,grand-bassam,5.2118,-3.7388,24.98,92,70,3.03,CI,1692749802
429,port macquarie,-31.4333,152.9167,24.94,42,3,1.67,AU,1692750091
430,caraguatatuba,-23.6338,-45.4899,22.71,52,0,2.61,BR,1692750091
431,nikolayevsk-on-amure,53.1406,140.73,19.68,76,100,1.86,RU,1692750092
432,tateyama,34.9833,139.8667,28.06,83,67,4.12,JP,1692750092
433,bakchar,57.0186,82.0711,11.61,99,68,1.96,RU,1692750092
434,inhambane,-23.865,35.3833,21.27,87,0,5.85,MZ,1692750092
435,udachny,66.4167,112.4,6.36,75,3,1.49,RU,1692750092
436,magdagachi,53.45,125.8,17.97,58,100,3.6,RU,1692750092
437,maloye ganyushkino,46.6,49.2667,25.05,44,9,2.99,KZ,1692750093
438,lashio,22.9333,97.75,20.35,99,100,0.3,MM,1692750093
439,wladyslawowo,54.7909,18.4009,17.18,74,1,4.36,PL,1692750093
440,la manga del mar menor,37.6413,-0.7165,27.77,87,40,1.79,ES,1692750093
441,gulf shores,30.246,-87.7008,32.41,58,0,3.09,US,1692749539
442,rikaze,29.25,88.8833,12.59,75,98,1.1,CN,1692750093
443,broome,42.2506,-75.833,18.55,80,91,2.1,US,1692750093
444,nadi,-17.8,177.4167,27.0,50,20,5.66,FJ,1692750094
445,la ronge,55.1001,-105.2842,20.14,64,75,2.57,CA,1692750094
446,touros,-5.1989,-35.4608,26.0,69,34,6.5,BR,1692749945
447,colachel,8.1667,77.25,26.04,84,55,5.49,IN,1692749805
448,metlili chaamba,32.2667,3.6333,28.52,30,0,2.57,DZ,1692750094
449,devadanappatti,10.15,77.65,25.1,82,79,1.55,IN,1692750094
450,quellon,-43.1167,-73.6167,5.04,88,100,3.43,CL,1692750095
451,tupa,-21.9347,-50.5136,25.85,37,2,3.05,BR,1692749806
452,shirvan,39.9509,48.8994,25.79,70,4,2.07,AZ,1692750095
453,saint-joseph,-21.3667,55.6167,22.21,83,22,6.26,RE,1692750095
454,vila do maio,15.1333,-23.2167,27.44,79,92,2.24,CV,1692750095
455,tabou,4.423,-7.3528,24.47,89,93,3.9,CI,1692749806
456,recreo,-29.2818,-65.061,19.38,31,20,7.53,AR,1692749854
457,flying fish cove,-10.4217,105.6791,24.82,78,100,6.69,CX,1692750096
458,borkum,53.5809,6.6915,17.97,86,22,4.46,DE,1692750096
459,beckley,37.7782,-81.1882,23.23,70,0,2.57,US,1692750078
460,harstad,68.799,16.5293,12.67,97,100,2.24,NO,1692749807
461,santa marta,11.2408,-74.199,27.16,84,100,2.57,CO,1692749886
462,tari,12.4086,4.4914,27.59,71,26,3.63,NG,1692750096
463,altayskoye,51.9533,85.3325,16.2,66,71,2.69,RU,1692750096
464,kolokani,13.5728,-8.0339,25.2,76,65,2.71,ML,1692750096
465,kayangel,8.0823,134.7173,28.07,79,4,4.91,PW,1692750097
466,janauba,-15.8025,-43.3089,28.35,25,68,1.71,BR,1692750097
467,capitao poco,-1.7464,-47.0594,23.49,82,48,2.41,BR,1692750097
468,tshabong,-26.05,22.45,11.65,34,0,3.5,BW,1692750097
469,fortuna,40.5982,-124.1573,21.07,69,20,6.69,US,1692750097
470,goz beida,13.95,20.55,29.3,53,87,3.11,TD,1692749809
471,anton lizardo,19.05,-95.9833,30.12,77,33,4.15,MX,1692749810
472,labuan,5.2767,115.2417,27.2,83,20,0.0,MY,1692750089
473,valdez,1.2492,-78.9831,25.12,87,86,3.75,EC,1692750098
474,farkhor,37.4922,69.4036,24.05,28,0,0.27,TJ,1692750098
475,kingisepp,59.3733,28.6134,12.43,94,98,1.12,RU,1692750098
476,holualoa,19.6228,-155.9522,28.91,76,20,4.12,US,1692750098
477,altinekin,38.3078,32.8686,22.31,43,0,1.72,TR,1692750099
478,qashyr,53.0675,76.1036,16.54,75,26,2.33,KZ,1692750099
479,walvis bay,-22.9575,14.5053,11.72,78,0,5.68,NA,1692749942
480,newnham,-41.3833,147.1333,11.53,82,40,8.75,AU,1692750099
481,kenai,60.5544,-151.2583,19.05,68,0,4.63,US,1692749811
482,tijucas,-27.2414,-48.6336,23.42,92,85,2.96,BR,1692750099
483,tegueste,28.5167,-16.3167,26.64,38,0,4.63,ES,1692750099
484,aksu,41.1231,80.2644,25.72,33,86,1.11,CN,1692750100
485,kuta,-8.7233,115.1723,25.97,78,40,5.36,ID,1692750100
486,nizhniy odes,63.6445,54.856,6.62,98,99,2.69,RU,1692750100
487,t'aebaek,37.1759,128.9889,25.11,73,34,1.58,KR,1692750100
488,madalena,41.2162,-8.3345,25.17,67,15,1.53,PT,1692750100
489,kindia,10.0569,-12.8658,21.62,97,100,0.82,GN,1692750100
490,thinadhoo,0.5333,72.9333,27.88,76,75,5.82,MV,1692750101
491,merizo village,13.2658,144.6691,31.31,84,72,2.55,GU,1692750101
492,grand falls-windsor,48.9332,-55.6649,15.84,89,100,1.73,CA,1692750079
493,ardahan,41.1087,42.7022,11.27,93,3,0.95,TR,1692750101
494,ta`u,-14.2336,-169.5144,26.01,69,13,7.57,AS,1692750101
495,rio hato,8.3833,-80.1667,20.82,94,100,8.49,PA,1692750102
496,pizarro,4.9533,-77.366,24.6,89,100,1.07,CO,1692750103
497,lesnoy,57.6198,63.0784,11.2,60,100,1.19,RU,1692750103
498,conduaga,8.862,117.4893,27.81,76,98,1.06,PH,1692750103
499,igrim,63.1906,64.4162,6.67,95,100,2.0,RU,1692750103
500,tyukhtet,56.5389,89.3011,13.27,93,50,1.95,RU,1692749814
501,dano,11.15,-3.0667,24.21,90,17,2.57,BF,1692750103
502,kharkhorin,47.1975,102.8238,9.49,86,98,0.46,MN,1692750104
503,privas,44.5833,4.5,26.24,52,32,1.55,FR,1692750104
504,nadym,65.5333,72.5167,10.35,79,98,1.89,RU,1692750104
505,hats'avan,39.4641,45.9705,15.1,85,0,2.44,AM,1692749815
506,miracema,-21.4122,-42.1967,23.54,57,0,1.49,BR,1692750104
507,konakovo,56.7,36.7667,13.91,88,100,1.71,RU,1692749815
508,hefei,31.8639,117.2808,28.01,74,0,1.0,CN,1692750105
509,praia da vitoria,38.7333,-27.0667,21.14,83,20,5.24,PT,1692750105
510,armacao de buzios,-22.7469,-41.8817,20.09,88,0,6.93,BR,1692749950
511,motygino,58.1831,94.7592,14.22,86,58,1.17,RU,1692749816
512,queenstown,-31.8976,26.8753,12.19,33,6,6.55,ZA,1692749926
513,warrnambool,-38.3833,142.4833,12.96,80,94,5.79,AU,1692750105
514,arinos,-15.9169,-46.1056,24.92,31,96,0.81,BR,1692750105
515,dickinson,29.4608,-95.0513,33.05,74,40,7.72,US,1692750106
516,molodohvardiys'k,48.3458,39.6582,17.83,68,6,3.31,UA,1692749817
517,santa elena de uairen,4.6167,-61.1333,21.08,76,48,1.62,VE,1692750106
518,felipe carrillo puerto,19.5833,-88.05,22.51,98,97,1.79,MX,1692750106
519,amos,48.5669,-78.1162,16.31,67,100,1.8,CA,1692749817
520,itoman,26.1247,127.6694,31.21,74,20,2.57,JP,1692750106
521,cole harbour,44.6724,-63.4751,18.71,75,46,6.69,CA,1692750106
522,ridder,50.355,83.5133,15.11,68,96,1.64,KZ,1692750107
523,luderitz,-26.6481,15.1594,13.13,80,0,4.17,NA,1692750107
524,junin,-34.5838,-60.9433,7.16,81,33,2.28,AR,1692750107
525,dalandzadgad,43.5708,104.425,14.72,41,79,2.52,MN,1692750107
526,santa ana,33.7456,-117.8678,33.73,54,20,4.63,US,1692750068
527,colares,38.7992,-9.4469,27.55,72,2,3.37,PT,1692749818
528,anisoc,1.8658,10.7689,21.63,100,54,0.73,GQ,1692749818
529,catabola,-12.15,17.2833,17.98,23,2,2.12,AO,1692750108
530,taroa,8.7058,171.2275,28.29,79,100,6.19,MH,1692749819
531,maralal,1.0968,36.698,14.11,67,36,2.18,KE,1692749819
532,constitucion,-35.3333,-72.4167,10.91,91,100,2.74,CL,1692750108
533,bay roberts,47.5999,-53.2648,17.41,98,100,0.34,CA,1692749819
534,la breita,-4.2608,-80.8875,24.14,68,99,3.51,PE,1692750108
535,brandon,27.9378,-82.2859,33.83,67,0,2.57,US,1692749898
536,broken arrow,36.0526,-95.7908,37.18,52,0,3.09,US,1692749820
537,kununurra,-15.7667,128.7333,26.99,24,20,2.57,AU,1692750109
538,cannonvale,-20.2833,148.7,21.66,71,16,6.77,AU,1692750109
539,howard springs,-12.497,131.047,27.71,55,33,4.23,AU,1692750109
540,nizhnyaya omka,55.4338,74.9426,12.3,66,66,2.58,RU,1692750109
541,koungheul,13.9833,-14.8,22.91,92,100,0.41,SN,1692749820
542,lincoln city,44.9582,-124.0179,22.25,77,41,2.24,US,1692750109
543,santo antonio,-6.3106,-35.4789,22.77,83,48,3.56,BR,1692750109
544,montepuez,-13.1256,38.9997,18.08,91,1,2.53,MZ,1692750110
545,groningen,53.25,6.75,16.68,92,19,0.51,NL,1692750110
546,susuman,62.7833,148.1667,3.38,97,100,1.44,RU,1692750110
547,karwar,14.8,74.1333,24.68,88,84,2.18,IN,1692750110
548,arkhangel'sk,64.5401,40.5433,6.13,91,27,1.47,RU,1692750110
549,manismata,-2.4667,111.0333,24.46,86,85,1.75,ID,1692750110
550,masterton,-40.9597,175.6575,11.6,56,7,0.61,NZ,1692750110
551,dubbo,-32.25,148.6167,11.07,71,100,4.63,AU,1692749822
552,riyadh,24.6877,46.7219,30.08,15,0,2.34,SA,1692750053
553,pak phanang,8.3511,100.202,26.01,76,55,2.32,TH,1692750111
554,serhetabat,35.2799,62.3438,21.99,34,0,1.69,TM,1692750111
555,galle,6.0367,80.217,26.28,84,87,4.05,LK,1692749624
556,aswan,24.0934,32.907,32.4,22,0,1.59,EG,1692749823
557,chusovoy,58.3013,57.8131,8.95,80,61,0.62,RU,1692750111
558,mugia,43.1041,-9.2179,23.84,76,42,4.04,ES,1692750112
559,laguna,38.421,-121.4238,34.08,38,0,3.6,US,1692750112
560,raja,8.4596,25.678,20.87,94,100,1.17,SS,1692749823
561,rongelap,11.1635,166.8941,28.95,75,14,6.99,MH,1692750112
562,belur,13.1667,75.8667,18.73,92,73,1.87,IN,1692750112
563,meiningen,50.5679,10.4152,17.68,84,38,1.53,DE,1692750112
564,macia,-25.0269,33.0989,20.86,65,0,1.6,MZ,1692749824
565,miranda do douro,41.4969,-6.2731,27.52,31,72,0.71,PT,1692750113
566,bayville,40.9106,-73.5621,25.0,63,56,3.01,US,1692749824
567,lerwick,60.1545,-1.1494,13.0,81,100,7.73,GB,1692750113
568,singrauli,24.1997,82.6753,24.26,91,100,1.35,IN,1692749825
569,kone,-21.0595,164.8658,23.66,52,18,1.71,NC,1692750113
570,huron,41.1501,-82.5499,20.93,81,41,2.83,US,1692750113
571,nueva loja,0.0847,-76.8828,20.48,99,97,0.77,EC,1692750113
572,kousseri,12.0769,15.0306,27.68,57,4,2.22,CM,1692750114
573,wajir,1.7471,40.0573,24.16,62,24,6.57,KE,1692749825
574,levuka,50.1834,-105.4011,22.85,73,75,4.12,CA,1692750114
575,yarmouth,41.7057,-70.2286,19.03,85,0,0.45,US,1692750114
576,paungde,18.4833,95.5,24.12,98,100,2.65,MM,1692750114
577,uyuni,-20.4597,-66.825,5.34,8,46,2.85,BO,1692749826
578,sao joao da barra,-21.6403,-41.0511,22.05,89,0,5.33,BR,1692750115
579,moranbah,-22.0016,148.0466,22.75,45,5,5.68,AU,1692749826
580,duba,27.3513,35.6901,32.07,59,51,1.39,SA,1692749582
581,vojens,55.2464,9.306,15.76,100,40,1.54,DK,1692750115
582,nangomba,-10.9,38.5,20.33,84,1,1.77,TZ,1692750115
583,kikwit,-5.041,18.8162,27.9,39,84,1.84,CD,1692750115
584,ad dilam,23.9915,47.1627,32.23,17,0,0.99,SA,1692750116
585,odienne,9.51,-7.5692,22.19,96,94,1.63,CI,1692750116
